id,magicTown,state,latitude,longitude,population,description,wiki
1,"Aculco, Estado de México",Estado de México,20.0985989,-99.8275861,49266,"Este Pueblo Mágico reside entre montañas, peñas y cascadas, donde el sol inunda de luz calles, callejones y refleja su luz en sus blancas paredes.","https://www.gob.mx/sectur/es/articulos/aculco-estado-de-mexico"
2,"Ajijic, Jalisco",Jalisco,20.2996995,-103.2637074,11439,"Fundada en 1531, su nombre proviene del náhuatl Axixic que significa “donde se derrama el agua” o “donde brota el agua”, es una de las villas más antiguas de México.","https://www.gob.mx/sectur/articulos/ajijic-jalisco"
3,"Álamos, Sonora",Sonora,27.0254869,-108.941309,24976,"Al pasear por sus calles empedradas y callejones se pueden admirar antiguas casonas muy bien conservadas que cuentan historias de otras épocas, especialmente del auge minero debido a la veta de La Europea.","https://www.gob.mx/sectur/articulos/alamos-sonora"
4,"Amealco de Bonfil, Querétaro",Querétaro,20.1885969,-100.1451177,66841,"En Amealco se pueden realizar distintas actividades tales como practicar campismo, ciclismo de montaña, senderismo, ecoturismo y rutas en cuatrimoto.","https://www.gob.mx/sectur/articulos/amealco-de-bonfil-queretaro"
5,"Aquismón, San Luis Potosí",San Luis Potosí,21.6248648,-99.0197318,48359,"El Pueblo Mágico de Aquismón es la Meca para los amantes de los deportes de aventura como: abseiling, climbing, hiking, kayaking, mountain biking, parachiting rafting, o wingsuit flying.","https://www.gob.mx/sectur/articulos/aquismon-san-luis-potosi"
6,"Arteaga, Coahuila",Coahuila,25.4546718,-100.850791,29578,"Un Pueblo Mágico en medio de una inmensa zona de bosques con pinos y valles de manzanos de los más impresionantes del país. Poseedor de un clima sumamente agradable donde predomina el viento fresco a cualquier hora del día.","https://www.gob.mx/sectur/articulos/arteaga-coahuila"
7,"Atlixco, Puebla",Puebla,18.9131227,-98.4293891,141793,"Este Pueblo Mágico convive con el volcán Popocatépetl. Donde te ubiques, sea una terraza o en la punta del Cerro de San Miguel, el coloso siempre vigila y recuerda su presencia a través de una bocanada.","https://www.gob.mx/sectur/articulos/atlixco-puebla"
8,"Bacalar, Quintana Roo",Quintana Roo,18.6782919,-88.3923946,41754,"Su nombre viene del maya Bakhalal que significa “cerca o rodeado de carrizos”. De forma circular, la laguna es poco profunda lo que permite nadar cómodamente.","https://www.gob.mx/sectur/es/articulos/bacalar-quintana-roo"
9,"Batopilas, Chihuahua",Chihuahua,27.030387,-107.7362336,11270,"Batopilas se localiza en las entrañas de una de las barrancas más profundas de la Sierra Madre Occidental, llamada también Sierra Tarahumara; para llegar al Pueblo Mágico, se toma el ferrocarril Chepe en Chihuahua y se hace escala en Creel, a partir de ahí, se viaja por 3 horas en una de las carreteras más espectaculares no sólo de México, sino del mundo.","https://www.gob.mx/sectur/es/articulos/batopilas-chihuahua"
10,"Bernal, Querétaro",Querétaro,20.7379323,-99.9423166,3965,"Es un Pueblo Mágico lleno de colores y vida donde puedes pasar un fin de semana en familia gozando de la tranquilidad y buen clima que ofrece mientras disfrutan de la gastronomía y las artesanías locales.","https://www.gob.mx/sectur/articulos/bernal-queretaro"
11,"Bustamante, Nuevo León",Nuevo León,26.5324753,-100.507826,3661,"Este Pueblo Mágico es conocido como “El jardín de Nuevo León” ya que es el oasis de la región. El verdor de los árboles rodea a Bustamante y permite adentrarse en la calma de sus calles que nos recibe para encontrar una arquitectura típica.","https://www.gob.mx/sectur/articulos/bustamante-nuevo-leon"
12,"Cadereyta de Montes, Querétaro",Querétaro,20.6904037,-99.8208632,65075,"Visitar este Pueblo Mágico es una experiencia única ya que es la entrada a la Sierra Gorda queretana; es un municipio con gran diversidad geográfica: tiene clima semidesértico en el sur y bosques en el norte.","https://www.gob.mx/sectur/articulos/cadereyta-de-montes-queretaro"
13,"Calvillo, Aguascalientes",Aguascalientes,21.8468345,-102.7186454,58250,"Ubicado en el estado de Aguascalientes, lleva el nombre de Calvillo, en honor a su benefactor. Su origen se da con el establecimiento de una congregación de indios nahuas de San José de Huejúcar, que significa “lugar de sauces”.","https://www.gob.mx/sectur/articulos/calvillo-aguascalientes"
14,"Candela, Coahuila",Coahuila,26.8388667,-100.6658581,1643,"Un Pueblo Mágico que también es heroico, lleno de historia y cultura pues fue punto clave de batallas revolucionarias Lideradas por Venustiano Carranza. Recibe a visitantes que buscan sus aguas termales de Ojo Caliente y los paisajes de Los Carricitos, Las Lajitas y el Frentón.","https://www.gob.mx/sectur/articulos/candela-coahuila"
15,"Capulálpam de Méndez, Oaxaca",Oaxaca,17.3040094,-96.4470119,1619,"Enclavada en la Sierra Norte de Oaxaca se encuentra la localidad de Capulálpam de Méndez. Sus casas perfectamente alineadas con paredes de adobe y techos de teja, entre calles empedradas y enmarcadas en la cantera amarilla del templo de San Mateo.","https://www.gob.mx/sectur/articulos/capulalpam-de-mendez-oaxaca"
16,"Casas Grandes, Chihuahua",Chihuahua,30.3740395,-107.9552259,65753,"Las primeras noticias de ésta enigmática ciudad se tuvieron en el informe del conquistador Don Francisco de Ibarra en 1566, quien la describió como “de mucha grandeza, altura y fortaleza”, ya que había edificios de hasta 7 pisos.","https://www.gob.mx/sectur/articulos/casas-grandes-chihuahua"
17,"Chiapa de Corzo, Chiapas",Chiapas,16.7021616,-93.0081378,112075,"Es un hermoso Pueblo Mágico considerado una de las poblaciones más antiguas del continente americano, pues se fundó en marzo de 1528.","https://www.gob.mx/sectur/articulos/chiapa-de-corzo-chiapas"
18,"Chignahuapan, Puebla",Puebla,19.8383768,-98.0312084,66464,"En este Pueblo Mágico descubrirás tal belleza de la selva que parece extraída de un libro de aventuras: todos los días un telón de bruma se abre lentamente con la luz del alba...","https://www.gob.mx/sectur/articulos/chignahuapan-puebla-223081"
19,"Cholula, Puebla",Puebla,19.0765772,-98.3021192,154448,"Si en Puebla se muestra el arte novohispano en todo su esplendor, en Cholula se respiran profundos aires prehispánicos. La ciudad fue levantada sobre los cimientos de una importante urbe indígena en donde se edificaron diversos templos y adoratorios, sobre los cuales más tarde se construyeron templos católicos; hoy Cholula tiene 37 iglesias, algo sorprendente para una ciudad de su tamaño.","https://www.gob.mx/sectur/articulos/cholula-puebla"
20,"Coatepec, Veracruz",Veracruz,19.451938,-96.9594511,93911,"Este Pueblo Mágico se localiza a los pies del Cofre de Perote, a una altitud y temperatura óptimas para la producción del grano con que se prepara la estimulante bebida del café.","https://www.gob.mx/sectur/articulos/coatepec-veracruz"
21,"Comala, Colima",Colima,19.3190634,-103.7549847,168965,"Comala el “Pueblo Blanco de América”, expresa su magia e historia a través del arte, la naturaleza y la gastronomía. Su paisaje invita a pasar el día en el campo, entre el agua y el fuego, entre lagunas con vista al volcán activo.","https://www.gob.mx/sectur/articulos/comala-colima"
22,"Comitán, Chiapas",Chiapas,16.2299602,-92.1155691,166178,"Es sinónimo de tierra entrañable, de orgullo chiapaneco, de amabilidad lugareña y de un ámbito de paz y valiosas tradiciones.","https://www.gob.mx/sectur/es/articulos/comitan-de-dominguez-chiapas"
23,"Comonfort, Guanajuato",Guanajuato,20.7197856,-100.7596892,82216,"Este Pueblo Mágico es un destino cargado de historias, leyendas, hechos y lugares inmejorables simbolizados en sus tradiciones, monumentos y vida cotidiana. La gastronomía es una de las formas más trascendentales.","https://www.gob.mx/sectur/articulos/comonfort-guanajuato"
24,"Compostela de Indias, Nayarit",Nayarit,21.2367605,-104.9002786,15489,"Compostela, Pueblo Mágico cuyo su significado es “campo de estrellas” es un lugar con un importante pasado histórico. Lleva un nombre glorioso e inmortal: Santiago de Compostela, por mandato de la reina Juana de Castilla.","https://www.gob.mx/sectur/articulos/villa-de-santiago-de-galicia-de-compostela-de-indias-nayarit"
25,"Cosalá, Sinaloa",Sinaloa,24.4136366,-106.6915369,168965,"Cosalá se encuentra ubicado en la Sierra Madre Occidental, a 160 kilómetros de Culiacán. Es un reflejo del México antiguo con atributos simbólicos, leyendas e historias.","https://www.gob.mx/sectur/es/articulos/cosala-sinaloa"
26,"Coscomatepec, Veracruz",Veracruz,19.0683148,-97.0471556,15252,"Este pequeño Pueblo Mágico es un lugar donde respiras aire puro y su guardián, el Pico de Orizaba, crea un hilo plateado cuando se deshiela en su cascada de Alpatláhuac. En este poblado podrás descubrir los secretos requeridos para el armado de un puro: combustión, aroma y sabor.","https://www.gob.mx/sectur/articulos/coscomatepec-de-bravo-veracruz"
27,"Creel, Chihuahua",Chihuahua,27.7504473,-107.636889,5338,"Creel es un destino lleno de historia y tradición. Sus alrededores abundantes en pinos y encinos despiertan el espíritu aventurero para visitar este lugar que se conoce como la puerta de entrada a las Barrancas del Cobre, uno de los sistemas de barrancas más largos del mundo.","https://www.gob.mx/sectur/es/articulos/creel-chihuahua"
28,"Cuatro Ciénegas, Coahuila",Coahuila,26.9868149,-102.066403,12715,"Cuatro Ciénegas es uno de los Pueblos Mágicos más recientes. Muchos viajeros, al conocer este hermoso lugar se preguntaban desde hace años por qué no tenía el reconocimiento, cuando de sobra se respira en sus callecitas polvorientas y blanqueadas por el sol toda la magia que se puede pedir.","https://www.gob.mx/sectur/articulos/cuatro-cienegas-coahuila"
29,"Cuetzalan del Progreso, Puebla",Puebla,20.0176353,-97.5233705,49864,"El Pueblo Mágico que habita en la sierra entre bosques con niebla, cafetales, cascadas, cuevas, grutas y helechos gigantes; allá donde los pájaros inician su canto y el propio significado de su nombre lo afilia con la divina ave mítica de las culturas prehispánicas: el quetzal.","https://www.gob.mx/sectur/articulos/cuetzalan-del-progreso-puebla"
30,"Cuitzeo del Porvenir, Michoacán",Michoacán,19.9694366,-101.1419185,29910,"Su nombre significa “lugar de tinajas”, por la relación que tiene con la inmensa laguna del mismo nombre. Su ubicación le permitió un moderado aislamiento durante varios siglos, motivo por el cual el ex convento agustino de Santa María Magdalena ha permanecido sin grandes alteraciones.","https://www.gob.mx/sectur/articulos/cuitzeo-del-porvenir-michoacan"
31,"Dolores Hidalgo, Guanajuato",Guanajuato,21.151597,-100.9367183,163038,"Este Pueblo Mágico es Patrimonio Histórico y cuna de la Independencia; preserva secretos, como la Catedral, testigo silencioso que guarda entre sus muros el sonido de la voz del cura Miguel Hidalgo cuando dio el grito de independencia.","https://www.gob.mx/sectur/articulos/dolores-hidalgo-guanajuato"
32,"El Fuerte, Sinaloa",Sinaloa,26.417632,-108.6145938,96593,"Se dice que los viajeros prefieren abordar el recorrido del tren 'El Chepe' rumbo a las Barrancas del Cobre saliendo desde aquí, seguramente atraídos por la belleza natural y la riqueza cultural de este lugar. Es un pueblo soleado en donde se escucha el río, posee una cocina fresca e inesperada, y sus habitantes bailan tan eufóricos como sabios en su naturalidad… ","https://www.gob.mx/sectur/articulos/el-fuerte-sinaloa"
33,"El Oro, Estado de México",Estado de México,19.8011693,-100.1308319,6475,"El Pueblo Mágico de El Oro es una de las antiguas glorias mineras del Estado de México. Y aunque su esplendor minero, hace mucho tiempo que se agotó, continúa brillando como destino turístico. Posee señoriales edificios que cautivan la atención de los visitantes y los incita a buscar mayores referencias de su apasionante historia.","https://www.gob.mx/sectur/articulos/el-oro-estado-de-mexico"
34,"El Rosario, Sinaloa",Sinaloa,22.75,-105.371111,53773,"El Rosario es considerado Pueblo Mágico por su riqueza histórica acumulada por más de tres siglos, es un poblado de tradición minera fundado en 1655 que alcanzó su mayor auge político y económico en el siglo XVIII. A pocos kilómetros de distancia, en Chametla se puede visitar un importante centro ceremonial indígena.","https://www.gob.mx/sectur/es/articulos/el-rosario-sinaloa"
35,"Guadalupe, Zacatecas",Zacatecas,22.7565759,-102.511889,211740,"Este Pueblo Mágico de calles tranquilas, y de gente trabajadora te invita a conocer porqué es diferente, aún cuando colinda, y es parte de la zona metropolitana de Zacatecas. Este lugar forma parte del “Camino Real de Tierra Adentro”, declarado Patrimonio de la Humanidad por la UNESCO.","https://www.gob.mx/sectur/es/articulos/guadalupe-zacatecas"
36,"Guerrero, Coahuila",Coahuila,28.3089889,-100.3807826,1643,"Este Pueblo Mágico es un ejemplo de sobrevivencia al tiempo, aquí encontrarás fascinantes huellas de su pasado novohispano. Camina y recorre sus calles pobladas de gente franca y animosa que te invita a sonreír, entra en su antigua iglesia que revela el olor a madera de antaño y protege un tesoro.","https://www.gob.mx/sectur/es/articulos/guerrero-coahuila"
37,"Huamantla, Tlaxcala",Tlaxcala,19.3184941,-97.9233826,98764,"Huamantla, rebosante de haciendas y ermitas, en un entorno de colores, festejos populares y gran emotividad, se levanta en el valle tlaxcalteco a 2,400 metros sobre el nivel del mar, como un lugar mágico, con arquitectura de estilo francés, una antigua tradición ganadera, una singular destreza titiritera y el fascinante arte de los tapetes de aserrín.","https://www.gob.mx/sectur/articulos/huamantla-tlaxcala"
38,"Huasca de Ocampo, Hidalgo",Hidalgo,20.2040455,-98.5754259,17607,"Primer Pueblo Mágico de México, destacado por sus increíbles paisajes naturales, lugares históricos, hermosas vistas, calles empedradas, paseos románticos, haciendas coloniales, lugares mágicos, donde se combinan lo hecho por el hombre y la obra de la naturaleza, creando una imagen agradable y acogedora para pasar unos días de verdadero descanso en esta pintoresca provincia.","https://www.gob.mx/sectur/articulos/huasca-de-ocampo-hidalgo?idiom=es"
39,"Huauchinango, Puebla",Puebla,20.1757001,-98.0628862,103946,"Este Pueblo Mágico ubicado al centro de la Sierra poblana te permitirá descubrir su despreocupación en los ríos y cascadas que lo rodean. Huauchinango es el lugar ideal para el turismo de aventura y naturaleza: ciclismo de montaña, paseos en lancha, pesca, safari fotográfico y senderismo.","https://www.gob.mx/sectur/articulos/huauchinango-puebla"
40,"Huautla de Jiménez, Oaxaca",Oaxaca,18.130831,-96.8436739,31710,"Pueblo Mágico que se abre paso entre la niebla al llamado del canto del caracol y los vestidos bordados de las mujeres de la Sierra Mazateca. Cuna de la célebre María Sabina, famosa por realizar viajes astrales por medio de hongos alucinógenos de la región de la Cañada.","https://www.gob.mx/sectur/articulos/huautla-de-jimenez-oaxaca-212439"
41,"Huichapan, Hidalgo",Hidalgo,20.3786677,-99.6508401,47425,"Al recorrer las calles empedradas de este Pueblo Mágico descubres admirables construcciones virreinales y antiguas casonas con marcos de madera y ventanas de hierro forjado, encuentras tranquilas plazas arboladas. A visitar de forma obligada es El Chapitel donde se celebró por primera vez “El Grito de Independencia” el 16 de septiembre de 1812.","https://www.gob.mx/sectur/articulos/huichapan-hidalgo"
42,"Isla Aguada, Campeche",Campeche,18.7842824,-91.4918344,6204,"Según la historia, esta Villa estaba separada del continente por un brazo que unía al mar con el Río Sabancuy. Siendo una isla, los piratas se refugiaban en ella después de haber cometido sus atracos a embarcaciones y a otros puertos cercanos.","https://www.gob.mx/sectur/articulos/isla-aguada-campeche"
43,"Isla Mujeres, Quintana Roo",Quintana Roo,21.2321799,-86.7340934,22686,"Sin duda este Pueblo Mágico es uno de los secretos mejor guardados del Caribe Mexicano y es considerado como uno de los destinos que debes visitar al menos una vez en tu vida. Si estás buscando relajarte encontrarás albercas panorámicas, hamacas y camastros con vistas de película, pues esta isla fue escondite de famosos piratas.","https://www.gob.mx/sectur/articulos/isla-mujeres-quintana-roo-212545"
44,"Ixtapan de la Sal, Estado de México",Estado de México,18.8390501,-99.6760096,36911,"Este Pueblo Mágico es sinónimo de descanso y salud, un lugar para meditación, curación y sobre todo de relajación gracias a sus excelentes servicios de masaje y fisioterapia. Ofrece un magnífico clima soleado, sus célebres aguas termales de propiedades curativas, y una vegetación exuberante; vive la usanza de un baño de vapor prehispánico: el temazcal.","https://www.gob.mx/sectur/articulos/ixtapan-de-la-sal-estado-de-mexico"
45,"Izamal, Yucatán",Yucatán,20.9299997,-89.0227126,28555,"Testimonio de tres culturas: un encanto colonial con el sello distintivo de un pueblo pequeño, magníficos testimonios de la cultura maya y un gran convento de influencia española. Este destino tiene un legado cultural importante. Todas las casas, las tiendas y las iglesias de este lugar están pintadas de amarillo dorado y al pueblo se le conoce como 'La Ciudad Amarilla'.","https://www.gob.mx/sectur/es/articulos/izamal-yucatan"
46,"Jala, Nayarit",Nayarit,21.1046601,-104.4378501,19321,"Jala es una población perteneciente al municipio de Jala, en el Estado de Nayarit. Cuenta con 5586 habitantes. Jala se encuentra a 1070 metros sobre el nivel del mar (SNM). Jala es el municipio del estado de Nayarit que cuenta con la más diversa cantidad de monumentos históricos.","https://www.gob.mx/sectur/articulos/jala-nayarit"
47,"Jalpa de Cánovas, Guanajuato",Guanajuato,20.8794331,-101.9828669,670,"Este Pueblo Mágico está en la frontera del estado, en una posición privilegiada ya que forma parte de las Rutas Turísticas de Negocios, Aventura, Haciendas del Bajío y Cristera. Por su fértil suelo se convirtió en uno de los principales productores de alimentos, por lo que también se le conoció como “El Granero de México”.","https://www.gob.mx/sectur/articulos/jalpa-guanajuato"
48,"Jalpan de Serra, Querétaro",Querétaro,21.2190312,-99.4714352,27343,"Jalpan se encuentra en el corazón de la Sierra Gorda. Su belleza natural se complementa con las diversas expresiones culturales y la magnificencia del arte barroco de las misiones franciscanas, legado de Fray Junípero Serra.","https://www.gob.mx/sectur/es/articulos/jalpan-de-serra-queretaro"
49,"Jerez de García Salinas, Zacatecas",Zacatecas,22.6468746,-102.9876221,59910,"Este apacible Pueblo Mágico donde se saborea el ambiente provinciano, es conocido por ser la cuna del poeta Ramón López Velarde, y primero en Zacatecas. Se dice que el nombre de Jerez proviene de un vocablo árabe que significa “lugar donde abundan los pastizales”, y que sus fundadores fueron andaluces extremeños, pero lo cierto es que su documentación histórica dice que fue establecido en la segunda mitad del siglo XVI.","https://www.gob.mx/sectur/articulos/jerez-de-garcia-salinas-zacatecas-213844"
50,"Jiquilpan de Juárez, Michoacán",Michoacán,19.994231,-102.7192577,361458,"Jiquilpan es un encantador Pueblo Mágico de Michoacán, situado junto al río del mismo nombre. Es un lugar donde árboles floreados reflejan el sol iluminando plazas, capillas y calles empedradas. Se le conoce como “la ciudad de las jacarandas”, Jiquilpan de Juárez entreteje plazas, templos, jardines y puentes para ofrecer un encantador ambiente pueblerino donde destaca el conjunto urbano.","https://www.gob.mx/sectur/articulos/jiquilpan-de-juarez-michoacan"
51,"Juquila, Oaxaca",Oaxaca,16.2375067,-97.2932803,18654,"Es uno de los destinos de turismo religioso más importantes del país. Más de un millón de peregrinos visitan anualmente el Santuario de la Inmaculada Virgen de Juquila, los cuales también disfrutan en el trayecto de la extraordinaria gastronomía oaxaqueña.","https://www.gob.mx/sectur/articulos/santa-catarina-juquila-oaxaca"
52,"Lagos de Moreno, Jalisco",Jalisco,21.3634964,-101.9291015,172403,"Localizado al noreste de Jalisco, este hermoso Pueblo Mágico, donde su centro histórico y su famoso puente sobre el Río Lagos fueron nombrados Patrimonio Mundial por la UNESCO en 2010, ofrece al visitante actividades como paseos, espectáculos de charrería, y hermosas construcciones religiosas como la Parroquia de la Asunción.","https://www.gob.mx/sectur/articulos/lagos-de-moreno-jalisco"
53,"Linares, Nuevo León",Nuevo León,24.8639494,-99.5617847,84666,"Este Pueblo Mágico es un atractivo visual, posee una bella arquitectura que se puede admirar al recorrer sus calles. Pero es más un deleite: es reconocido mundialmente por sus dulces de leche de vaca y cabra, entre los que resaltan las famosas “Glorias de Linares”.","https://www.gob.mx/sectur/es/articulos/linares-nuevo-leon"
54,"Loreto, Baja California Sur",Baja California Sur,26.0117564,-111.3477531,21657,"En el corazón de la península de Baja California Sur se encuentra Loreto. Uno de los destinos turísticos más impresionantes de México. Entre naturaleza y cultura, es un espacio idóneo para halagar y sorprender a los visitantes.","https://www.gob.mx/sectur/articulos/loreto-baja-california-sur-210374"
55,"Magdalena de Kino, Sonora",Sonora,30.6248514,-110.9714055,33049,"En el norte del Estado de Sonora, a 80 kilómetros de la frontera, Magdalena de Kino es una pintoresca ciudad, con paisajes históricos y calles empedradas. Magdalena te recibirá con deliciosos platillos regionales y nacionales, lugares para acampar y coloridas fiestas que recuerdan con alegría nuestras raíces y tradiciones.","https://www.gob.mx/sectur/articulos/magdalena-de-kino-sonora"
56,"Malinalco, Estado de México",Estado de México,18.9445694,-99.4953884,28155,"En un hermoso valle de abundante vegetación, al pie de las montañas se ubica Malinalco, Pueblo Mágico ancestral de calles empedradas y casas multicolores. Sus calles están salpicadas de flores que brotan de las paredes de sus casonas coloniales y de pequeños templos de los siglos XV, y XVII que te transportarán en un viaje por el pasado de México.","https://www.gob.mx/sectur/articulos/malinalco-mexico"
57,"Maní, Yucatán",Yucatán,20.3930712,-89.3917555,5868,"Maní es una tierra mágica que remonta los inicios de su nombre a la lengua maya “Lugar donde todo pasó” o “Manik” día del calendario maya relacionado con el venado. Aunque no hay datos históricos exactos del inicio de la ocupación de dicha región por los mayas, gracias a la evidencia arqueológica en el cenote Xcabachen y los conjuntos arquitectónicos explorados en Tipikal.","https://www.gob.mx/sectur/articulos/mani-yucatan"
58,"Mapimí, Durango",Durango,25.833708,-103.8487392,26932,"Mapimí significa “piedra en alto o cerro elevado”. En la época prehispánica la región fue habitada por los indígenas tobosos y cocoyomes. Los españoles fundaron el pueblo en 1598. En este lugar se descubrieron minerales valiosos, lo que propició el asentamiento de los españoles, quienes enfrentaron a los indígenas.","https://www.gob.mx/sectur/articulos/mapimi-durango"
59,"Mascota, Jalisco",Jalisco,20.5260029,-104.7892254,14451,"El Pueblo Mágico de Mascota está ubicado entre encinos, pinos y bajo el cielo azul de la Sierra Madre Occidental, abrazará tu llegada con su aire fresco de montaña que se mezcla con calor del pacífico.","https://www.gob.mx/sectur/articulos/mascota-jalisco"
60,"Mazamitla, Jalisco",Jalisco,19.9165757,-103.0212924,14043,"Es un Pueblo Mágico enclavado en el corazón de la Sierra del Tigre, un lugar lleno de historia, tradición, magia y ensueño que te invita a vivir experiencias inolvidables en una de las poblaciones más emblemáticas y tradicionales en el occidente del país.","https://www.gob.mx/sectur/articulos/mazamitla-jalisco"
61,"Mazunte, Oaxaca",Oaxaca,15.6677291,-96.5545185,651,"Este Pueblo Mágico es un atractivo mundial por que ofrece las condiciones ideales para practicar el surf en sus playas y por el cuidado de sus tortugas marinas. Este Pueblo Mágico, bañado por las cálidas y cristalinas aguas del Pacífico se distingue por sus doradas arenas y por ofrecer una placidez privilegiada.","https://www.gob.mx/sectur/articulos/mazunte-oaxaca"
62,"Melchor Múzquiz, Coahuila",Coahuila,27.8800603,-101.5077573,69102,"Este Pueblo Mágico es un mosaico de cultura, historia y naturaleza; los origines apuntan a 90 millones de años atrás, evidencia de esto las encuentras en su Museo de Paleontología, la presencia de etnias Kikapúes y Mascogos.","https://www.gob.mx/sectur/articulos/melchor-muzquiz-coahuila"
63,"Metepec, Estado de México",Estado de México,19.2528864,-99.598551,242307,"La magia del pueblo de Metepec está en las manos de sus artesanos que transforman el barro en hermosas piezas que muestran la fusión de dos culturas. Este Pueblo Mágico combina construcciones modernas, como el Centro Panamericano de Ecología o la Sede del Sistema de Radio y Televisión Mexiquense, con edificios coloniales como el Convento e Iglesia Franciscana del siglo XVI de fachada barroca.","https://www.gob.mx/sectur/articulos/metepec-mexico"
64,"Mexcaltitán, Nayarit",Nayarit,21.9056579,-105.4752218,895,"A Mexcaltitán se le conoce como cuna de la mexicanidad por la relación histórica que este lugar tiene con el legendario Aztlán, sitio de donde partiera la peregrinación náhuatl, que luego culminaría con la fundación de la gran Tenochtitlan, hoy Ciudad de México.","https://www.gob.mx/sectur/articulos/mexcaltitan-nayarit"
65,"Mier, Tamaulipas",Tamaulipas,26.4265448,-99.1511502,6385,"En las calles de este bello pueblo tamaulipeco podrás respirar el ambiente de los antiguos pueblos coloniales que surgieron en lo que fue llamado el Nuevo Santander durante el siglo XVIII. Mier es uno de los pueblos más antiguos en la franja fronteriza, protagonista de la expansión de Texas y defensor de la soberanía nacional durante la guerra contra Estados Unidos en el siglo X​IX.​","https://www.gob.mx/sectur/articulos/mier-tamaulipas"
66,"Mineral de Angangueo, Michoacán",Michoacán,19.6196444,-100.2835336,10892,"En Michoacán, en la Sierra Madre Oriental, se encuentra Angangueo, un pueblo con un importante pasado minero. Su nombre da cuenta de las características de su geografía y significa lo mismo “pueblo entre montañas” que “a la entrada de la cueva”, “cosa muy alta” o “dentro del bosque”.","https://www.gob.mx/sectur/es/articulos/mineral-de-angangueo-michoacan?idiom=es"
67,"Mineral de Pozos, Guanajuato",Guanajuato,21.2231788,-100.4936673,2856,"Este Pueblo Mágico, conocido como pueblo fantasma, fue abandonado dos veces desde su fundación. Cuando descubras sus ruinas te asombrarás de los vestigios de las minas y de las haciendas de beneficio que perpetúan la riqueza de las vetas de oro y plata. Desde los profundos túneles, escucharás rumores, leyendas e historias de esta tierra semidesértica.","https://www.gob.mx/sectur/articulos/mineral-de-pozos-guanajuato"
68,"Mineral del Chico, Hidalgo",Hidalgo,20.2150472,-98.7310435,8878,"En esta región se han practicado desde hace décadas actividades deportivas y recreativas; actualmente se considera la meca del turismo de naturaleza y aventura. En sus montañas, valles y presas se practica ciclismo de montaña, pesca deportiva, senderismo, campamentos, descenso a rappel, tirolesas y especialmente la escalada en roca, ya que en el Parque Nacional 'El Chico' existen más de 200 formaciones rocosas con sitios maravillosos para este deporte.","https://www.gob.mx/sectur/articulos/mineral-del-chico-hidalgo"
69,"Mocorito, Sinaloa",Sinaloa,25.481348,-107.9205937,40358,"Este Pueblo Mágico es particularmente sabroso pues es cuna del Chilorio, un guiso de carne de cerdo deshebrada con chile pasilla y secretos locales que algunos consideran patrimonio cultural. También porque es un destino donde vives la esencia del norte por medio de la fiesta, la música de banda o a través de actividades en la naturaleza como ir de pesca o intentar jugar el antiguo deporte de Ulama que aquí sigue siendo una práctica cotidiana.","https://www.gob.mx/sectur/articulos/mocorito-sinaloa"
70,"Nochistlán de Mejía, Zacatecas",Zacatecas,21.3634678,-102.8436668,27945,"No hay Pueblo Mágico como Nochistlán para conjuntar el pentagrama de baluartes turísticos que circundan el estado de Zacatecas, y es que de ninguna manera su belleza e importancia histórica podían ser indiferentes. Esta población, cuyo nombre puede ser entendido como “lugar de tunas” o “lugar de grana”; es ejemplo de fuerza, tesón y valor.","https://www.gob.mx/sectur/articulos/nochistlan-de-mejia-zacatecas"
71,"Nombre de Dios, Durango",Durango,23.8482422,-104.2441169,19060,"Nombre de Dios es el pueblo más antiguo del estado, llamado originalmente Villa de los Cuatro Templos, establecido en 1562, antes de la fundación de la ciudad de Durango. Fue fundado como villa por los españoles en 1563 (sobre lo que antes había sido una misión franciscana). Los templos de Nombre de Dios forman parte del Camino Real de Tierra Adentro.","https://www.gob.mx/sectur/articulos/nombre-de-dios-durango"
72,"Orizaba, Veracruz",Veracruz,18.8504744,-97.1036396,123182,"Este Pueblo Mágico es custodiado por el espectacular y nevado Pico de Orizaba; enclavado en las montañas de la zona central de Veracruz. Fue una importante ciudad virreinal, reputada como la más culta del país y en su fulgurante historia acumuló un patrimonio arquitectónico digno de admiración.","https://www.gob.mx/sectur/articulos/orizaba-veracruz"
73,"Pahuatlán, Puebla",Puebla,20.2769343,-98.1501609,20274,"Llegar a este Pueblo Mágico es viajar en el tiempo, esta región rodeada de valles y barrancas, ha logrado mantener intactos sus modos de vida y tradiciones con el paso de los siglos. Pahuatlán está situado en la Sierra Norte de Puebla, marca la entrada al Totonacapan, área cultural de la civilización totonaca que tiene como uno de sus símbolos a los voladores.","https://www.gob.mx/sectur/articulos/pahuatlan-del-valle-puebla"
74,"Palenque, Chiapas",Chiapas,17.5109792,-91.9930466,132265,"Este Pueblo Mágico es un paraíso para los amantes de la arqueología, la historia y la naturaleza. Primero, es vecino al sitio arqueológico de Palenque; y segundo, es un espacio privilegiado para explorar la selva, descubrir cascadas o deleitarse con la vista de lagunas y la fauna de la región.","https://www.gob.mx/sectur/articulos/palenque-chiapas"
75,"Palizada, Campeche",Campeche,18.2545777,-92.0914799,8683,"En Palizada el tiempo parece haberse detenido, sus edificaciones con techos de teja de Marsella, su exuberante naturaleza y los Paliceños, conviven en una armonía que encanta. Antiguo puerto ribereño donde el intercambio comercial con Europa, de maderas de Palo de Tinte por tejas francesas, le dieron al lugar las características que hoy podemos apreciar.","https://www.gob.mx/sectur/articulos/palizada-campeche"
76,"Papantla, Veracruz",Veracruz,20.4566709,-97.3156131,159910,"Papantla está ubicado al norte del estado de Veracruz, a 270 kilómetros de su capital. Los campos de los alrededores son colinas suaves de verdes intensos, en paisajes excepcionales, entre los ríos Cazones y Tecolutla.","https://www.gob.mx/sectur/es/articulos/papantla-veracruz"
77,"Paracho, Michoacán",Michoacán,19.6464537,-102.0461233,39657,"El nombre de Paracho proviene de una palabra chichimeca que significa “ofrenda”. Paracho es una población prehispánica y se constituyó en República de Indias a la llegada de los españoles. En 1754 era conocido como San Pedro Paracho, y siendo cabecera de curato se componía de nueve pueblos.","https://www.gob.mx/sectur/articulos/paracho-de-verduzco-michoacan"
78,"Parras de la Fuente, Coahuila",Coahuila,25.4492883,-102.1747077,44472,"Al sur de Coahuila, en medio del desierto, Parras de la Fuente es un oasis rodeado de viñedos, nogales y calles históricas que invitan a los visitantes a recorrerlas con tranquilidad. Su gran historia y sus tradiciones, se conjugan no sólo en la arquitectura y gastronomía, sino creando una atmósfera que identifica a Parras de la Fuente como una experiencia única enmarcada en el desierto.","https://www.gob.mx/sectur/articulos/parras-de-la-fuente-coahuila"
79,"Pátzcuaro, Michoacán",Michoacán,19.5134546,-101.6091876,98832,"Pátzcuaro conjunta la vida moderna con las tradiciones purépechas. Un paseo por su centro te llevará al pasado a través de calles empedradas y empinadas, llenas de gente y artesanías. Las iglesias de estilo barroco y neoclásico le dan el toque distintivo a las amplias plazas, y a las casas de adobe y teja.","https://www.gob.mx/sectur/es/articulos/patzcuaro-michoacan-211530"
80,"Pinos, Zacatecas",Zacatecas,22.2972779,-101.5747236,6304,"Como toda población minera, la irregular topografía natural propició el forjamiento de un conglomerado pero encantador conjunto de viviendas que con el transcurrir dieron forma e importancia al real, surgiendo estupendos edificios religiosos como la parroquia de San Matías, el templo de Tlaxcalita, el de San Francisco y el de la Santa Veracruz.","https://www.gob.mx/sectur/articulos/pinos-zacatecas"
81,"Real de Asientos, Aguascalientes",Aguascalientes,22.2384759,-102.0890156,46492,"Con paisajes mineros, fachadas de cantera rosa y un gran museo de naturaleza viva es lo que hace de Real de Asientos un lugar maravilloso. Real de Asientos cuenta con edificaciones que datan de 1548 y en sus rincones guardan tesoros históricos y culturales.","https://www.gob.mx/sectur/articulos/real-de-asientos-aguascalientes"
82,"Real de Catorce, San Luis Potosí",San Luis Potosí,23.6893967,-100.8855459,9579,"Como una leyenda viviente, Real de Catorce es donde en antaño existió un pueblo de piedra, desbordante de plata, capaz de hacer un largo túnel como ostentación de poder. También otro de culto, saqueado por la bola, casi fantasmal, con perros salvajes y ancianos que aguardaban la muerte.","https://www.gob.mx/sectur/es/articulos/real-de-catorce-san-luis-potosi"
83,"Real de Monte, Hidalgo",Hidalgo,20.1436705,-98.673811,14324,"Ubicado a quince minutos de la capital de Hidalgo, es el Pueblo Mágico más alto del país. Esta región, históricamente minera fue testigo de importantes episodios como la primera huelga de América, o el nacimiento de la pasión por el futbol soccer en México, cuando los mineros ingleses lo introdujeron al país. Aquí se disputó el primer partido de futbol del país, deporte que llegó para quedarse.","https://www.gob.mx/sectur/articulos/real-de-monte-hidalgo"
84,"Salvatierra, Guanajuato",Guanajuato,20.2090023,-100.8818401,94126,"Salvatierra es región de poemas y graneros de oro. Pueblo Mágico fértil, donde el Río Lerma transita orgulloso. Salvatierra es una de las ciudades coloniales más representativas de Guanajuato. La comunidad de Salvatierra se localiza en el Valle de Guatzindeo, nombre de etimología indígena que quiere decir “sitio de hermosa vegetación”.","https://www.gob.mx/sectur/articulos/salvatierra-guanajuato"
85,"San Cristóbal de las Casas, Chiapas",Chiapas,16.7369928,-92.6375988,215874,"San Cristóbal de las Casas cuenta con una presencia étnica y una rica tradición colonial que lo mantienen como uno de los destinos favoritos del turismo extranjero. Su edificación siguió un proceso similar al de otras ciudades coloniales que se crearon en el territorio novohispano.","https://www.gob.mx/sectur/articulos/san-cristobal-de-las-casas-chiapas"
86,"San Joaquín, Querétaro",Querétaro,20.916487,-99.5649876,8359,"Es un Pueblo Mágico desde 2015 ubicado en la Sierra Gorda. Está lleno de historia y ofrece una gran diversidad turística, riqueza cultural y gastronómica y paisajes naturales impresionantes. La población está entre montañas y rodeada de pinos y encinos que contrastan con las coloridas casas. Es reconocido por su pasado minero.","https://www.gob.mx/sectur/articulos/san-joaquin-queretaro"
87,"San José de Gracia, Aguascalientes",Aguascalientes,22.1475929,-102.4129804,9552,"Es un pueblo mágico inmerso en la naturaleza, con una población que destaca por su amabilidad y calidez. Es punto de encuentro para los devotos del Cristo Roto o los fanáticos del turismo de aventura. En la sierra fría existen varios campamentos, impresionantes paisajes y diversas aventuras que podrás compartir con amigos o familia.","https://www.gob.mx/sectur/articulos/san-jose-de-gracia-aguascalientes"
88,"San Juan Teotihuacán y San Martín de las Pirámides, Edo de México",Estado de México,19.704346,-98.8347275,58507,"Aquí encontrarás no uno, sino dos Pueblos Mágicos donde el repicar de las campanas se mezcla con el sonido del huéhuetl. Teotihuacán fue una de las mayores ciudades prehispánicas de Mesoamérica y uno de los más admirados del mundo; pero ambos pueblos combinan las culturas prehispánica y colonial. Por lo que debes descubrir: el Ex Convento de San Juan Bautista destaca por su arquitectura; o el Templo de Nuestra Señora de la Purificación.","https://www.gob.mx/sectur/articulos/san-juan-teotihuacan-y-san-martin-de-las-piramides-estado-de-mexico"
89,"San Pablo Villa de Mitla, Oaxaca",Oaxaca,16.9213244,-96.3625053,13587,"El Pueblo Mágico de Mitla está rodeado por enormes cerros que forman un verde tapiz durante la temporada de lluvias; aquí esta una de las zonas arqueológicas más importantes porque se han encontrado importantes personajes y sacerdotes enterrados bajo los principales palacios. Fue habitado por zapotecos y mixtecos en distintas épocas, por lo que destaca la mezcla cultural.","https://www.gob.mx/sectur/es/articulos/san-pablo-villa-mitla-oaxaca"
90,"San Pedro Tlaquepaque, Jalisco",Jalisco,20.6243088,-103.3212248,687127,"Este Pueblo Mágico comenzó habitado por totonacas que creaban utensilios y objetos de arte desde antes de la conquista. Tlaquepaque en nuestros días forma parte de la metrópolis de Guadalajara, y es un destino para todos aquellos en busca de arte mexicano.","https://www.gob.mx/sectur/articulos/san-pedro-tlaquepaque-jalisco"
91,"San Pedro y San Pablo Teposcolula, Oaxaca",Oaxaca,17.5105133,-97.488446,4353,"Hablar de este Pueblo Mágico es hablar de joyas arquitectónicas y culturales. Su encanto reside en sus calles empedradas, leyendas, bellos parajes, caminos y montañas, pero sobre todo, en los monumentos que realzan la riqueza de la cultura mixteca y que son testigos de la historia de esta localidad.","https://www.gob.mx/sectur/es/articulos/san-pedro-y-san-pablo-teposcolula-oaxaca"
92,"San Sebastián del Oeste, Jalisco",Jalisco,20.7613306,-104.8528075,5086,"Este Pueblo Mágico al borde de la Sierra Madre Occidental, y de origen minero, tuvo sus mejores momentos durante la Colonia, cuando tuvo 20,000 habitantes; pero el cierre de minas el durante el siglo XIX provocó la migración de muchos habitantes. Visitarlo es como volver al pasado: sus iglesias, haciendas y antiguas minas que continúan ahí.","https://www.gob.mx/sectur/es/articulos/san-sebastian-del-oeste-jalisco"
93,"Santa Clara del Cobre, Michoacán",Michoacán,19.4064279,-101.6396979,16748,"El Pueblo Mágico de Santa Clara del Cobre se encuentra en un rincón de Michoacán. En esta encantadora localidad sus artesanos funden, moldean y mantienen viva una tradición que transforma el cobre en recuerdos. Admira su plaza principal mientras contemplas el bello kiosco con techo de cobre y su enorme cazo antiguo adornando su centro.","https://www.gob.mx/sectur/es/articulos/santa-clara-del-cobre-michoacan"
94,"Santa María Del Río, San Luis Potosí",San Luis Potosí,21.8031036,-100.7336555,40326,"Santa María del Río es un pueblo encantador por su gente, sus lugares llenos de cultura y tradiciones únicas en el país. Se respira un aire de tranquilidad y paz que envuelve a sus habitantes. Tiene gran potencial turístico.","https://www.gob.mx/sectur/articulos/santa-maria-del-rio-san-luis-potosi"
95,"Santiago, Nuevo León",Nuevo León,25.4166153,-100.1591213,46784,"Escondido entre la Sierra Madre Oriental y la Sierra de la Silla, Santiago es un Pueblo Mágico que aguarda tu visita. Si bien las casas y calles del poblado son un gran atractivo, aquí hay muchas más cosas que hacer.","https://www.gob.mx/sectur/articulos/santiago-nuevo-leon"
96,"Sayulita, Nayarit",Nayarit,20.8688888,-105.4408333,3390,"Un pueblo mágico con playa, pero una playa muy concurrida por los que practican surf. Aquí verás atardeceres con espíritus flotando sobre las olas del mar mientras despiden el día y dan la bienvenida a la noche. Sayulita es cosmopolita, ecléctico, medio retro; un lugar donde aparecen hippies, familias o sofisticados visitantes.","https://www.gob.mx/sectur/es/articulos/sayulita-nayarit"
97,"Sisal, Yucatán",Yucatán,21.1667573,-90.0244872,2078,"El puerto de Sisal fue uno de los más importantes en la época de la colonia, la comercialización de las fibras de henequén, algodón, tabaco hacia el viejo continente, lo constituía como un punto de encuentro de diversas culturas en - Se encuentra dentro de la Reserva Estatal El Palmar.","https://www.gob.mx/sectur/articulos/sisal-yucatan"
98,"Sombrerete, Zacatecas",Zacatecas,23.6342457,-103.6391657,63665,"Devoto de la Virgen de la Candelaria, el pueblo de Sombrerete fue fundado en 1555 por Juan de Tolosa, el minero español que encontró en la plata el destino que habría de cumplirse en este rincón zacatecano.","https://www.gob.mx/sectur/articulos/sombrerete-zacatecas"
99,"Tacámbaro, Michoacán",Michoacán,19.225809,-101.457397,81105,"Este Pueblo Mágico, conocido como el Balcón de Tierra Caliente, presume el clima perfecto de Michoacán. Situado entre las montañas, la tierra caliente, una brisa fresca y un viento cálido bailan y se fusionan. Tacámbaro refleja un ambiente de antaño. El centro se forma de callejuelas, de casas blancas y grandes, de plazuelas escondidas.","https://www.gob.mx/sectur/es/articulos/tacambaro-de-codallos-michoacan"
100,"Talpa de Allende, Jalisco",Jalisco,20.3784149,-104.8191965,14997,"Este Pueblo Mágico habita entre verdes montañas, encontrarás calles empedradas y casonas multicolores con techos de teja; por las noches escucharás a los grillos mientras las luces de sus faroles iluminan pinos y buganvilias. También experimentarás la inmensa fe que sus residentes le profesan a la virgen que salvaguarda las perfumadas calles olor chilte de Talpa.","https://www.gob.mx/sectur/articulos/talpa-de-allende-jalisco"
101,"Tapalpa, Jalisco",Jalisco,19.9476711,-103.7607783,21245,"Tapalpa se encuentra 140 km al suroeste de Guadalajara. Por su altura, a dos mil metros sobre el nivel del mar da la bienvenida a sus visitantes con el aroma de pinos, robles, encinos y flores que lo rodean, y con el olor a la leña quemada que mantiene cálidos los hogares. Debido a la abundancia de bosques en la región, la mayor parte de la producción artesanal de Tapalpa se elabora con madera, por lo que se pueden encontrar numerosos adornos tallados y muebles.","https://www.gob.mx/sectur/articulos/tapalpa-jalisco"
102,"Tapijulapa, Tabasco",Tabasco,17.4622198,-92.7779652,47905,"Tapijulapa es el pueblo más típico del estado de Tabasco. Es un pintoresco rincón de origen zoque de espléndida naturaleza donde el agua y la selva abundan. Aún conserva su elegante traza virreinal en la típica arquitectura de las casas, pintadas de blanco, con tejados de dos aguas, y las calles empedradas.","https://www.gob.mx/sectur/articulos/tapijulapa-tabasco"
103,"Taxco de Alarcón, Guerrero",Guerrero,18.5565468,-99.6051206,105586,"Encantador pueblo mágico con una larga historia escrita en cantera y plata. Sus visitantes podrán encontrar infinidad de sitios que los transportan al pasado. Serpenteantes calles y callejones empedrados guían sus pasos hasta antiguos templos enmarcados con parques, plazas y pintorescas casonas.","https://www.gob.mx/sectur/articulos/taxco-de-alarcon-guerrero"
104,"Tecate, Baja California",Baja California,32.563609,-116.6256752,108440,"Tecate es el único Pueblo Mágico ubicado en una frontera, es el punto de partida de la Ruta del Vino, lugar donde se encuentran algunas de las vinícolas más antiguas del Estado. Es el sitio donde nació la mundialmente famosa cerveza Tecate y donde se puede disfrutar una de las grandes joyas de la naturaleza bajacaliforniana: La Rumorosa. ¡Este Pueblo Mágico te cautivará por sus paisajes únicos y diversidad natural!","https://www.gob.mx/sectur/articulos/tecate-baja-california-206668"
105,"Tecozautla, Hidalgo",Hidalgo,20.5326359,-99.6323321,38010,"El Pueblo Mágico de Tecozautla es un paraíso natural dentro de un gran valle compuesto por mesetas, fallas geológicas y domos volcánicos que lo rodean. Es una población turística de ambiente colonial, con estrechas calles que desembocan en la plaza principal donde predomina la majestuosidad del reloj municipal, una torre de cantera de principios del siglo pasado y que es símbolo de fortaleza de todos sus habitantes.","https://www.gob.mx/sectur/articulos/tecozautla-hidalgo"
106,"Tepotzotlán, Estado de México",Estado de México,19.7185096,-99.2065202,103696,"Tepotzotlán es un pueblo que conserva el toque de provincia a pesar de ser parte del área Metropolitana que rodea la Ciudad de México.Uno de los espacios que lo distinguen es la Plaza de la Cruz, cuyo valor radica en la cruz atrial de piedra labrada con imágenes de la Pasión de Cristo.","https://www.gob.mx/sectur/articulos/tepotzotlan-mexico"
107,"Tepoztlán, Morelos",Morelos,18.9848015,-99.0930528,54987,"Pueblo místico que conserva un fuerte sentido de identidad. Enclavado en la parte norte del estado y a 17 km de la ciudad de Cuernavaca, Tepoztlán es el destino turístico favorito en Morelos. Ubicado en una zona natural protegida y en lo alto del cerro sagrado del Tepozteco, se encuentra en la zona arqueológica construida en el siglo XII, que se dedicó al dios de la fertilidad.","https://www.gob.mx/sectur/es/articulos/tepoztlan-morelos?idiom=es"
108,"Tequila, Jalisco",Jalisco,20.8819452,-103.8325001,44353,"Su nombre viene de la voz náhuatl “Tecuilan” que significa “lugar de tributos”. Tequila guarda celosamente algunas de sus más antiguas tradiciones, como la típica bendición de las nueve de la noche, cuando el cura del lugar bendice a los habitantes al tocar las campanas en tres ocasiones.","https://www.gob.mx/sectur/articulos/tequila-jalisco"
109,"Tequisquiapan, Querétaro",Querétaro,20.5187326,-99.8850586,72201,"Tequisquiapan, uno de los seis Pueblos Mágicos de Querétaro se caracteriza por su tranquilidad y su buen clima a lo largo del año. A sus alrededores se encuentran varios balnearios y aguas termales perfectos para refrescarse en vacaciones de verano o en una escapada de fin de semana.","https://www.gob.mx/sectur/articulos/tequisquiapan-queretaro"
110,"Tetela de Ocampo, Puebla",Puebla,19.8115842,-97.8096037,27216,"Destaca por su participación en la Batalla del 5 de mayo de 1862.","https://www.gob.mx/sectur/articulos/tetela-de-ocampo-puebla"
111,"Teúl de González Ortega, Zacatecas",Zacatecas,21.4658511,-103.4598473,5356,"Es un Pueblo Mágico cuya belleza natural y arquitectura le dan un aspecto colonial de extraordinaria sencillez y belleza. Teúl esta custodiado por gárgolas, calzadas empedradas y muros de cantera; y vecindario de gente amistosa, cálida y de mezcal.","https://www.gob.mx/sectur/articulos/teul-de-gonzalez-ortega-zacatecas"
112,"Tlalpujahua de Rayón, Michoacán",Michoacán,19.8055547,-100.1734224,28556,"Este hermoso Pueblo Mágico te espera para que vivas la Navidad cada día del año. Sus calles empedradas están enmarcadas por negocios donde se venden todo tipo de artesanías: desde esferas, artículos navideños y elementos decorativos. Tlalpujahua conserva sus raíces prehispánicas, su arquitectura y su majestuoso santuario te llevarán a una época mística.","https://www.gob.mx/sectur/articulos/tlalpujahua-de-rayon-michoacan"
113,"Tlatlauquitepec, Puebla",Puebla,19.8546482,-97.4949471,55576,"Este Pueblo Mágico es el Jardín de la Sierra Poblana, sus verdes paisajes lo revelan. En Tlatlauquitepec hay mucho que hacer, desde pasear por su tranquilo centro histórico y degustar su exquisita gastronomía, hasta realizar deportes extremos en lo alto del Cerro Cabezón.","https://www.gob.mx/sectur/es/articulos/tlatlauquitepec-puebla"
114,"Tlaxco, Tlaxcala",Tlaxcala,19.61766,-98.1174721,45438,"Un Pueblo Mágico que vive entre montañas, bosques, llanuras cubiertas de magueyes y una gran laguna. Se destaca por las torres de su parroquia, la cantera rosa de la Capilla de Lourdes y sobre todo por el cielo azul que enmarca el paisaje de las haciendas. Muestra de su riqueza arquitectónica son la Capilla del Santo Calvario y la Casa Goyri.","https://www.gob.mx/sectur/articulos/tlaxco-tlaxcala"
115,"Tlayacapan, Morelos",Morelos,18.960767,-98.9825083,19408,"Su encanto reside en sus costumbres, sus tradiciones heredadas de la cultura Olmeca y la ocupación de los Xochimilcas, quienes se establecieron y dominaron esta localidad en la época prehispánica. Su nombre viene del náhuatl y significa “sobre la punta de la tierra”, “lugar de los límites o linderos” o “la nariz de la tierra” y es de los pocos pueblos que conserva gran parte de su traza urbana prehispánica original.","https://www.gob.mx/sectur/es/articulos/tlayacapan-morelos"
116,"Todos Santos, Baja California Sur",Baja California Sur,23.4463619,-110.2265101,6485,"Pueblo Mágico situado sobre una meseta en las faldas de la Sierra de la Laguna, un paraíso que se asoma al Océano Pacífico entre un oasis de sembradíos, palmares y los cañaverales del Valle del Pilar.","https://www.gob.mx/sectur/articulos/todos-santos-baja-california-sur"
117,"Tonatico, Estado de México",Estado de México,18.8085105,-99.6703336,12912,"Tonatico es uno de los 125 municipios del Estado de México, viene del náhuatl Tonatiuh-co, que se compone de Tonatiuh: 'Sol' y co: 'lugar', significa 'lugar del Sol'. Los nahuas decían que aquí había nacido el sol por lo que también se le refiere como: “Lugar donde nace el Sol”.","https://www.gob.mx/sectur/articulos/tonatico-estado-de-mexico"
118,"Tula, Tamaulipas",Tamaulipas,22.9906564,-99.7204805,28230,"Ubicada en la Sierra Madre Oriental, al suroeste de Tamaulipas, la hermosa Tula es la cuna de la entidad, no es casualidad que la cuera tulteca, prenda típica de Tamaulipas, sea de este lugar. Fundada en 1617 por el fraile Juan Bautista de Mollinedo cuando formaba parte del Nuevo Santander.","https://www.gob.mx/sectur/articulos/tula-tamaulipas"
119,"Tulum, Quintana Roo",Quintana Roo,20.2114185,-87.4653502,46721,"El Pueblo Mágico de Tulum es un punto obligado y la mejor muestra del encanto maya gracias a sus ruinas situadas al borde del Mar Caribe; además de ser la única zona arqueológica que se asienta a la orilla de un acantilado, bajo el cual se encuentra la playa del Paraíso, una de las mejores y más hermosas playas de la Riviera Maya y muy probablemente, la más retratada.","https://www.gob.mx/sectur/articulos/tulum-quintana-roo"
120,"Tzintzuntzan, Michoacán",Michoacán,19.6287856,-101.57769,14911,"El Pueblo Mágico de Tzintzuntzan es heredero del Imperio Purépecha; actualmente se ubica en una planicie que domina el lago de Pátzcuaro. A unos pasos de el pueblo se encuentra el Centro Ceremonial Purépecha, Las Yácatas, este consta de cinco templos que datan del siglo XIII erigidos sobre una terraza de bloques de piedra.","https://www.gob.mx/sectur/es/articulos/tzintzuntzan-michoacan"
121,"Valladolid, Yucatán",Yucatán,20.68964,-88.2022488,85460,"Una de las ciudades más antiguas de la península y actualmente uno de los dos Pueblos Mágicos yucatecos, Valladolid es fascinante en toda la extensión de la palabra. Sus calles apacibles y llenas de vida albergan recintos históricos, casonas, museos, cómodos hotelitos, mercados, fuentes, hermosas tiendas de artesanías, puestos de helados y antojitos, parques y muchos rincones por explorar.","https://www.gob.mx/sectur/articulos/valladolid-yucatan"
122,"Valle de Bravo, Estado de México",Estado de México,19.1950964,-100.1326725,61590,"Han sido varios los nombres que se le han dado a Valle de Bravo desde la llegada de los frailes franciscanos a su territorio, el primero de ellos fue San Francisco del Valle de Temascaltepec (Temascaltepec de Indios), Villa del Valle y Valle de Bravo, aunque para distinguir entre el primero de éstos y real de minas de Temascaltepec, se optó por llamarle simplemente Valle.","https://www.gob.mx/sectur/articulos/valle-de-bravo-mexico"
123,"Viesca, Coahuila",Coahuila,25.3453848,-102.8083503,20305,"El mayor atractivo de los alrededores de Viesca son las Dunas de Bilbao. En un inicio, este territorio estaba cubierto por el mar, que al secarse nos dejó este increíble paisaje. Actualmente el desierto nos permite realizar caminatas y si prefieres un poco de adrenalina, un paseo en cuatrimoto es la actividad ideal.","https://www.gob.mx/sectur/articulos/viesca-coahuila"
124,"Villa del Carbón, Estado de México",Estado de México,19.7287602,-99.4617111,51498,"Este Pueblo Mágico mantiene sus riquezas, colonial y natural; está rodeado de montañas y frondosa vegetación, su tranquilo ambiente inunda con esencias de pino, cantar de aves...","https://www.gob.mx/sectur/articulos/villa-del-carbon-estado-de-mexico"
125,"Xico, Veracruz",Veracruz,19.4230332,-97.0097261,39623,"Xico es un hermoso Pueblo Mágico distinguido por su encanto de provincia, gracias a sus bellas casas coloniales, sus flores, sus árboles que dan frutos durante todo el año, sus verdes montañas y aromáticos cafetales. En Xico, cualquier motivo es suficiente para poner las ollas de mole al fuego.","https://www.gob.mx/sectur/articulos/xico-veracruz"
126,"Xicotepec, Puebla",Puebla,20.2786208,-97.964259,80591,"Este Pueblo Mágico está rodeado de montañas, se ubica en el corazón de la Sierra Madre Oriental, su plaza central luce arbolada y flanqueada por portales donde hay varias cafeterías para que el parroquiano deguste del aroma y sabor de su producto célebre: el café. En Xicotepec se toma café, a toda hora y esto se debe a que es uno de los productores de café más importante de Puebla.","https://www.gob.mx/sectur/articulos/xicotepec-de-juarez-puebla"
127,"Xilitla, San Luis Potosí",San Luis Potosí,21.3841719,-98.9921748,1392,"En la Huasteca Potosina existe un sitio único en el mundo que combina una vasta riqueza natural con surrealismo, es el Jardín Surrealista de Edward James. Hablar de Xilitla, en San Luis Potosí pone en la mente palabras como magia, arte, surrealismo y exuberancia.","https://www.gob.mx/sectur/articulos/xilitla-san-luis-potosi"
128,"Yuriria, Guanajuato",Guanajuato,20.2125571,-101.1265968,68741,"Yuriria, de origen purépecha, significa “Lago de sangre”; llamado así por los sugestivos colores de sus aguas, las cuales con el reflejo del sol forman tonos rojizos, escarlatas, e inclusive verdosos, similares a los tonos de la sangre.","https://www.gob.mx/sectur/articulos/yuriria-guanajuato"
129,"Zacatlán de las Manzanas, Puebla",Puebla,19.9440858,-97.959799,87361,"Entrar a este Pueblo Mágico es llegar a un mundo distinto, se percibe niebla y frío, como si alguien hubiera levantado la comunidad entera hasta las nubes. Por las tardes rápidamente las calles se llenan de niebla y no es posible verse ni la punta de la nariz. Sin duda, este milagro es sugestivo y atrayente.","https://www.gob.mx/sectur/articulos/zacatlan-puebla"
130,"Zempoala, Hidalgo",Hidalgo,19.9169605,-98.6696977,57906,"El Acueducto del Padre Tembleque, sitio declarado Patrimonio Cultural de la Humanidad por la UNESCO, es un sitio donde la historia, las creencias y las tradiciones son descritas como mágicas, la localidad es la zona donde los teotihuacanos, toltecas y chichimecas plasmaron sus huellas en una tierra bondadosa y prodiga como sus habitantes.","https://www.gob.mx/sectur/articulos/zempoala-hidalgo-pueblo-magico-ficha-tecnica?idiom=es"
131,"Zimapán, Hidalgo",Hidalgo,20.7366982,-99.3824614,39927,"Existe un encantador Pueblo Mágico, un pueblo minero, al pie de la Sierra Gorda que vale la pena visitar: Zimapán. Es el municipio más grande del Estado, lo que ofrece una gran variedad de paisajes, atractivos y actividades como por ejemplo el vuelo en parapente; en este lugar podrás practicar infinidad de deportes extremos al aire libre.","https://www.gob.mx/sectur/es/articulos/zimapan-hidalgo"
132,"Zozocolco de Hidalgo, Veracruz",Veracruz,20.140266,-97.5765826,14524,"Este Pueblo Mágico, Joya del Totonacapan, fusiona lo tradicional y la naturaleza; la bóveda de la parroquia de San Miguel Arcángel se enmarcada por candiles de colores, por globos de cantolla avivados por fuego y danzas de santiagueros.","https://www.gob.mx/sectur/articulos/zozocolco-de-hidalgo-veracruz"
